City_ID,City,Lat,Lon,Max Temp,Humidity,Clouds,Wind,Country,Date
0,hithadhoo,-0.6,73.0833,26.77,82.0,100.0,3.65,MV,1703304945.0
1,grytviken,-54.2811,-36.5092,4.23,88.0,95.0,3.31,GS,1703304945.0
2,ornskoldsvik,63.2909,18.7153,-6.47,86.0,100.0,6.17,SE,1703304946.0
3,kratie,12.4881,106.0188,25.98,53.0,100.0,4.37,KH,1703304947.0
4,papatowai,-46.5619,169.4708,16.24,73.0,80.0,5.4,NZ,1703304947.0
5,port-aux-francais,-49.35,70.2167,3.58,70.0,84.0,13.63,TF,1703304948.0
6,santo antonio do ica,-3.1022,-67.9397,24.2,90.0,88.0,0.53,BR,1703304949.0
7,argo,37.6333,22.7333,13.21,82.0,2.0,1.82,GR,1703304950.0
8,sarikei,2.1167,111.5167,32.68,58.0,96.0,1.24,MY,1703304951.0
9,waitangi,-43.9535,-176.5597,16.01,79.0,100.0,0.45,NZ,1703304951.0
10,divnogorsk,55.9594,92.3619,0.41,96.0,98.0,3.05,RU,1703304924.0
11,ulaangom,49.9811,92.0667,-26.65,97.0,96.0,0.92,MN,1703304953.0
12,merritt,50.1123,-120.7942,1.85,83.0,100.0,1.34,CA,1703304866.0
13,hayma',,,,,,,,
14,albany,42.6001,-73.9662,-4.63,81.0,100.0,1.41,US,1703304955.0
15,adamstown,-25.066,-130.1015,22.7,93.0,100.0,10.21,PN,1703304955.0
16,uturoa,-16.7333,-151.4333,24.5,92.0,100.0,1.28,PF,1703304956.0
17,anadyr,64.75,177.4833,-27.72,76.0,0.0,5.0,RU,1703304957.0
18,xunchang,28.4543,104.715,10.59,59.0,27.0,1.31,CN,1703304957.0
19,kapuskasing,49.4169,-82.4331,-1.0,86.0,100.0,2.57,CA,1703304958.0
20,flying fish cove,-10.4217,105.6791,28.82,65.0,75.0,4.12,CX,1703304959.0
21,fale old settlement,-9.3852,-171.2468,26.35,87.0,100.0,5.7,TK,1703304959.0
22,malvan,16.0667,73.4667,27.19,31.0,69.0,2.59,IN,1703304960.0
23,okhotsk,59.3833,143.3,-25.88,86.0,72.0,4.35,RU,1703304961.0
24,huarmey,-10.0681,-78.1522,21.18,84.0,81.0,3.58,PE,1703304962.0
25,st. john's,47.5649,-52.7093,0.08,93.0,100.0,11.83,CA,1703304701.0
26,college,64.8569,-147.8028,-21.62,79.0,75.0,0.0,US,1703304964.0
27,san patricio,28.017,-97.5169,20.47,87.0,76.0,2.99,US,1703304965.0
28,wailua homesteads,22.0669,-159.378,25.24,83.0,20.0,7.2,US,1703304966.0
29,tubarjal,30.4999,38.216,9.9,68.0,0.0,4.04,SA,1703304966.0
30,whitehorse,60.7161,-135.0538,-12.57,84.0,0.0,3.6,CA,1703304967.0
31,tura,25.5198,90.2201,21.92,57.0,100.0,0.3,IN,1703304968.0
32,susuman,62.7833,148.1667,-38.96,99.0,100.0,0.36,RU,1703304969.0
33,at taj,24.2049,23.2857,8.47,54.0,0.0,2.77,LY,1703304970.0
34,port lincoln,-34.7333,135.8667,20.71,53.0,0.0,6.42,AU,1703304730.0
35,tiksi,71.6872,128.8694,-29.29,97.0,57.0,3.84,RU,1703304971.0
36,nova sintra,14.8667,-24.7167,20.29,65.0,9.0,6.85,CV,1703304972.0
37,saudarkrokur,65.7461,-19.6394,-9.9,87.0,99.0,2.13,IS,1703304973.0
38,edinburgh of the seven seas,-37.0676,-12.3116,15.14,72.0,96.0,5.4,SH,1703304973.0
39,blackmans bay,-43.0167,147.3167,20.29,51.0,30.0,2.97,AU,1703304974.0
40,longyearbyen,78.2186,15.6401,-15.09,51.0,20.0,3.6,SJ,1703304975.0
41,suva,-18.1416,178.4415,27.71,69.0,75.0,4.63,FJ,1703304976.0
42,yellowknife,62.456,-114.3525,-8.66,99.0,100.0,6.69,CA,1703304952.0
43,pasni,25.2631,63.471,21.84,57.0,1.0,2.72,PK,1703304977.0
44,nemuro,43.3236,145.575,-2.8,54.0,9.0,9.37,JP,1703304978.0
45,bilibino,68.0546,166.4372,-30.35,99.0,99.0,0.57,RU,1703304979.0
46,lebu,-37.6167,-73.65,12.92,88.0,100.0,9.09,CL,1703304980.0
47,verkhnyaya khava,51.8404,39.9413,3.04,98.0,100.0,4.32,RU,1703304980.0
48,mayahi,13.9553,7.6712,14.55,31.0,2.0,4.45,NE,1703304981.0
49,sitka,57.0531,-135.33,2.94,81.0,75.0,2.57,US,1703304982.0
50,duekoue,6.7472,-7.3496,18.48,35.0,34.0,0.27,CI,1703304983.0
51,murudeshwara,14.0943,74.4845,28.42,46.0,98.0,2.78,IN,1703304984.0
52,cabo san lucas,22.8909,-109.9124,24.23,76.0,100.0,6.0,MX,1703304984.0
53,stanley,54.868,-1.6985,10.16,84.0,100.0,12.35,GB,1703304838.0
54,kremmen,52.7622,13.0252,2.72,85.0,79.0,7.44,DE,1703304986.0
55,saint-philippe,-21.3585,55.7679,29.77,73.0,99.0,0.6,RE,1703304986.0
56,qaqortoq,60.7167,-46.0333,-13.27,73.0,98.0,3.31,GL,1703304987.0
57,ouellah,,,,,,,,
58,mata-utu,-13.2816,-176.1745,28.3,72.0,94.0,8.84,WF,1703304989.0
59,margaret river,-33.95,115.0667,24.51,46.0,0.0,6.98,AU,1703304990.0
60,tabalah,19.95,42.4,13.58,79.0,0.0,2.11,SA,1703304991.0
61,monahans,31.5943,-102.8926,13.38,85.0,2.0,7.19,US,1703304906.0
62,invercargill,-46.4,168.35,20.01,79.0,97.0,1.79,NZ,1703304992.0
63,la passe,45.5549,-0.8967,9.99,83.0,90.0,3.53,FR,1703304993.0
64,mount isa,-20.7333,139.5,40.87,12.0,1.0,4.63,AU,1703304994.0
65,bredasdorp,-34.5322,20.0403,20.04,83.0,100.0,2.17,ZA,1703304994.0
66,lihue,21.9789,-159.3672,25.58,78.0,20.0,7.2,US,1703304995.0
67,souillac,-20.5167,57.5167,28.21,74.0,40.0,0.0,MU,1703304996.0
68,talnakh,69.4865,88.3972,-11.4,96.0,100.0,2.89,RU,1703304997.0
69,vorkuta,67.5,64.0,-14.69,98.0,93.0,1.56,RU,1703304998.0
70,howrah,22.5892,88.3103,21.0,83.0,20.0,0.0,IN,1703304998.0
71,port blair,11.6667,92.75,28.66,63.0,70.0,7.29,IN,1703304999.0
72,rocha,-34.4833,-54.3333,14.22,96.0,0.0,1.76,UY,1703305000.0
73,hamilton,39.1834,-84.5333,9.31,57.0,100.0,3.09,US,1703304914.0
74,zaozersk,69.4005,32.4476,-18.29,100.0,80.0,1.03,RU,1703305002.0
75,bethel,41.3712,-73.414,-2.42,80.0,0.0,0.0,US,1703305003.0
76,aykhal,66.0,111.5,-20.63,98.0,94.0,4.21,RU,1703305003.0
77,constantia,44.1833,28.65,3.38,67.0,73.0,8.95,RO,1703304846.0
78,aioun,16.6614,-9.6149,16.2,21.0,98.0,4.73,MR,1703305005.0
79,taiohae,,,,,,,,
80,arraial do cabo,-22.9661,-42.0278,24.78,92.0,98.0,1.49,BR,1703305006.0
81,lata,40.1629,-8.3327,6.07,74.0,0.0,1.57,PT,1703305007.0
82,dhidhdhoo,6.8833,73.1,28.5,73.0,71.0,3.48,MV,1703305008.0
83,badger,64.8,-147.5333,-21.67,81.0,0.0,0.0,US,1703305008.0
84,ola,59.5833,151.2833,-25.48,80.0,100.0,3.9,RU,1703305009.0
85,fortuna,40.5982,-124.1573,8.51,92.0,20.0,0.0,US,1703305010.0
86,la'ie,21.6477,-157.9253,24.66,78.0,97.0,2.24,US,1703305011.0
87,chipata,-13.6333,32.65,19.89,91.0,98.0,1.42,ZM,1703305011.0
88,puerto baquerizo moreno,-0.9,-89.6,23.61,85.0,86.0,4.91,EC,1703305012.0
89,juneau,58.3019,-134.4197,2.0,95.0,100.0,5.14,US,1703305013.0
90,selfoss,63.9331,-20.9971,-8.09,60.0,85.0,4.44,IS,1703305013.0
91,vorgashor,67.5833,63.95,-16.03,99.0,92.0,1.5,RU,1703305014.0
92,fuente obejuna,38.2667,-5.4167,7.06,69.0,0.0,1.5,ES,1703305015.0
93,niamey,13.5137,2.1098,21.16,24.0,0.0,4.12,NE,1703305015.0
94,chibougamau,49.9168,-74.3659,-9.21,79.0,100.0,3.6,CA,1703305016.0
95,ta`u,-14.2336,-169.5144,27.12,79.0,100.0,10.25,AS,1703305017.0
96,egilsstadir,65.2653,-14.3948,-6.05,79.0,75.0,2.57,IS,1703305017.0
97,bukene,-4.2333,32.8833,18.47,94.0,51.0,0.74,TZ,1703305018.0
98,la ronge,55.1001,-105.2842,-2.86,86.0,0.0,1.03,CA,1703305018.0
99,kuanda,56.3161,116.0806,-22.13,94.0,99.0,0.39,RU,1703305019.0
100,kulia village,,,,,,,,
101,thompson,55.7435,-97.8558,-3.91,100.0,100.0,3.09,CA,1703304899.0
102,ibicarai,-14.865,-39.5875,21.39,99.0,64.0,0.95,BR,1703305021.0
103,sao felix do xingu,-6.6447,-51.995,23.15,99.0,100.0,0.66,BR,1703305022.0
104,kenema,7.8767,-11.1875,19.05,57.0,34.0,1.02,SL,1703305023.0
105,ilulissat,69.2167,-51.1,-15.99,51.0,71.0,7.2,GL,1703305024.0
106,kelamangalam,12.6,77.85,21.02,71.0,99.0,2.45,IN,1703305024.0
107,conception bay south,47.4999,-52.9981,-0.05,94.0,100.0,13.3,CA,1703305025.0
108,sao vicente,-23.9631,-46.3919,27.1,26.0,50.0,0.68,BR,1703305026.0
109,kamina,-8.7386,24.9906,18.53,97.0,100.0,1.03,CD,1703305027.0
110,nabire,-3.3667,135.4833,27.21,88.0,98.0,2.39,ID,1703305027.0
111,rockport,28.0206,-97.0544,20.56,89.0,75.0,3.6,US,1703305028.0
112,acarau,-2.8856,-40.12,26.9,79.0,83.0,6.9,BR,1703304777.0
113,puerto san carlos,,,,,,,,
114,masterton,-40.9597,175.6575,22.28,63.0,99.0,2.46,NZ,1703305030.0
115,tranovaho,,,,,,,,
116,vingt cinq,,,,,,,,
117,isafjordur,66.0755,-23.124,-4.79,84.0,100.0,9.76,IS,1703305032.0
118,saipan,15.1355,145.701,29.39,65.0,40.0,10.29,MP,1703305033.0
119,parakou,9.3372,2.6303,22.66,28.0,2.0,2.78,BJ,1703305034.0
120,poronaysk,49.2167,143.1167,-11.74,86.0,100.0,8.0,RU,1703305035.0
121,toktogul,41.8708,72.9402,1.19,51.0,95.0,0.62,KG,1703304924.0
122,spring lake,35.1679,-78.9728,7.3,82.0,75.0,0.0,US,1703305036.0
123,pisco,-13.7,-76.2167,20.03,88.0,40.0,1.54,PE,1703305037.0
124,aoulef,26.9667,1.0833,11.33,36.0,4.0,4.52,DZ,1703304976.0
125,island harbour,50.724,-1.2758,10.55,85.0,99.0,4.02,GB,1703305039.0
126,kingscliff,-28.2667,153.5667,27.19,54.0,24.0,5.14,AU,1703305040.0
127,la gi,10.6667,107.7833,30.22,58.0,77.0,9.43,VN,1703305040.0
128,smyshlyayevka,53.2391,50.3907,1.15,93.0,100.0,3.91,RU,1703304960.0
129,parauapebas,-6.0675,-49.9022,23.09,97.0,78.0,0.64,BR,1703304916.0
130,wenxing,28.6667,112.8833,5.14,32.0,49.0,1.83,CN,1703305043.0
131,thanh hoa,19.8,105.7667,16.5,30.0,72.0,5.33,VN,1703305044.0
132,thayetmyo,19.3167,95.1833,27.44,53.0,2.0,2.6,MM,1703305045.0
133,sanctuary point,-35.1114,150.629,21.78,62.0,22.0,4.16,AU,1703305046.0
134,juegang,32.3174,121.1855,1.21,39.0,100.0,2.17,CN,1703305046.0
135,el bauga,18.262,33.9081,15.91,29.0,0.0,6.1,SD,1703305047.0
136,boromo,11.75,-2.9333,20.37,20.0,5.0,2.68,BF,1703305048.0
137,zyrya,40.3661,50.2917,10.05,64.0,21.0,10.95,AZ,1703305049.0
138,vanimo,-2.6741,141.3028,28.46,78.0,84.0,3.17,PG,1703305050.0
139,balkanabat,39.5108,54.3671,12.3,37.0,59.0,3.56,TM,1703305050.0
140,puerto ayora,-0.7393,-90.3518,24.75,93.0,87.0,1.79,EC,1703305051.0
141,west island,-12.1568,96.8225,27.99,78.0,100.0,5.66,CC,1703305052.0
142,port alfred,-33.5906,26.891,22.88,88.0,2.0,3.13,ZA,1703305053.0
143,taft,31.7471,54.2088,7.97,23.0,0.0,4.12,IR,1703305054.0
144,frontera,26.9333,-101.45,17.72,84.0,100.0,0.89,MX,1703305055.0
145,douentza,14.9951,-2.9517,17.66,19.0,0.0,1.85,ML,1703305056.0
146,iqaluit,63.7506,-68.5145,-8.15,67.0,100.0,3.09,CA,1703305056.0
147,carutapera,-1.195,-46.02,26.61,85.0,92.0,3.38,BR,1703305057.0
148,punta arenas,-53.15,-70.9167,6.06,70.0,20.0,9.77,CL,1703305058.0
149,rio grande,-32.035,-52.0986,20.53,86.0,100.0,1.4,BR,1703305059.0
150,kunyang,27.6658,120.5658,6.96,42.0,68.0,2.37,CN,1703305059.0
151,plouzane,48.3833,-4.6167,10.18,93.0,75.0,5.14,FR,1703305060.0
152,chulym,55.0997,80.9572,-3.58,98.0,100.0,3.57,RU,1703305061.0
153,guajara mirim,-10.7828,-65.3394,24.18,97.0,100.0,1.37,BR,1703305061.0
154,bontang,0.1333,117.5,27.38,79.0,91.0,0.4,ID,1703305062.0
155,sisimiut,66.9395,-53.6735,-17.38,82.0,17.0,6.61,GL,1703305063.0
156,fort bragg,35.139,-79.006,7.33,82.0,75.0,0.0,US,1703305064.0
157,puerto natales,-51.7236,-72.4875,7.41,71.0,75.0,7.43,CL,1703305065.0
158,avarua,-21.2078,-159.775,24.03,73.0,40.0,3.6,CK,1703305065.0
159,praia da vitoria,38.7333,-27.0667,13.75,94.0,40.0,2.35,PT,1703305066.0
160,illizi,26.4833,8.4667,8.43,42.0,0.0,1.9,DZ,1703305067.0
161,mahina,-17.5065,-149.489,26.87,78.0,75.0,2.06,PF,1703305068.0
162,hermanus,-34.4187,19.2345,19.33,88.0,96.0,2.43,ZA,1703305068.0
163,machesney park,42.3472,-89.039,6.34,97.0,100.0,2.03,US,1703305014.0
164,san antonio de pale,-1.4014,5.6325,27.21,83.0,100.0,3.26,GQ,1703305070.0
165,chonchi,-42.6128,-73.8092,10.56,98.0,10.0,1.45,CL,1703305070.0
166,pacific grove,36.6177,-121.9166,13.7,87.0,75.0,4.12,US,1703305022.0
167,paita,-5.0892,-81.1144,21.14,84.0,81.0,5.21,PE,1703305072.0
168,shingu,33.7333,135.9833,8.46,42.0,20.0,4.26,JP,1703305072.0
169,naryn,41.4287,75.9911,-5.59,62.0,100.0,3.77,KG,1703305073.0
170,kavaratti,10.5669,72.642,28.37,73.0,71.0,2.44,IN,1703305074.0
171,balabac,7.9868,117.0645,28.66,75.0,100.0,7.14,PH,1703305074.0
172,ribeira grande,38.5167,-28.7,17.1,74.0,18.0,2.68,PT,1703305075.0
173,dunedin,-45.8742,170.5036,15.08,83.0,100.0,4.66,NZ,1703304919.0
174,port elizabeth,-33.918,25.5701,23.94,82.0,75.0,9.26,ZA,1703305076.0
175,mount gambier,-37.8333,140.7667,21.63,43.0,2.0,5.65,AU,1703305077.0
176,ad dilam,23.9915,47.1627,18.23,44.0,99.0,5.85,SA,1703305078.0
177,jamestown,42.097,-79.2353,5.77,77.0,100.0,2.57,US,1703305079.0
178,keflavik,64.0049,-22.5624,-4.05,68.0,75.0,3.6,IS,1703305079.0
179,puerto armuelles,8.2833,-82.8667,27.87,72.0,71.0,0.45,PA,1703305080.0
180,port mathurin,-19.6833,63.4167,26.57,80.0,52.0,5.12,MU,1703305081.0
181,papao,-17.75,-149.55,26.82,89.0,99.0,4.75,PF,1703305082.0
182,bandarbeyla,9.4942,50.8122,25.36,74.0,15.0,3.95,SO,1703305082.0
183,kodinsk,58.6881,99.1844,-5.87,98.0,97.0,1.46,RU,1703305083.0
184,buta,2.7858,24.73,22.67,90.0,100.0,0.36,CD,1703305084.0
185,palikir - national government center,6.9248,158.1611,30.47,70.0,100.0,5.14,FM,1703305085.0
186,quibala,-10.7337,14.98,16.75,98.0,100.0,0.75,AO,1703305085.0
187,tazovsky,67.4667,78.7,-14.14,95.0,100.0,1.73,RU,1703305086.0
188,peace river,56.2501,-117.286,4.17,52.0,100.0,9.26,CA,1703305087.0
189,vernon,50.2581,-119.2691,5.89,75.0,99.0,1.54,CA,1703305088.0
190,ushuaia,-54.8,-68.3,4.81,81.0,75.0,13.38,AR,1703304960.0
191,tolanaro,-25.0319,46.9987,25.42,75.0,36.0,2.9,MG,1703305090.0
192,colby,39.3958,-101.0524,6.57,69.0,0.0,3.6,US,1703305092.0
193,yanchep,-31.55,115.6833,34.45,42.0,0.0,7.07,AU,1703305093.0
194,lompoc,34.6391,-120.4579,13.62,91.0,75.0,7.6,US,1703305094.0
195,yinchuan,38.4681,106.2731,-7.2,56.0,5.0,1.44,CN,1703304964.0
196,udachny,66.4167,112.4,-21.47,96.0,96.0,2.57,RU,1703305095.0
197,puerto aysen,-45.4,-72.7,8.17,98.0,41.0,2.07,CL,1703305096.0
198,changli,39.7042,119.1506,-6.79,53.0,83.0,1.43,CN,1703305096.0
199,akureyri,65.6835,-18.0878,-6.04,79.0,100.0,1.54,IS,1703305097.0
200,sept-iles,50.2001,-66.3821,-10.0,58.0,40.0,3.09,CA,1703305098.0
201,hawaiian paradise park,19.5933,-154.9731,21.73,97.0,100.0,2.06,US,1703305099.0
202,dampit,-8.2116,112.7493,30.4,49.0,97.0,2.61,ID,1703305099.0
203,alofi,-19.0595,-169.9187,24.94,78.0,70.0,7.72,NU,1703305100.0
204,boiling springs,35.0465,-81.9818,6.16,71.0,0.0,0.0,US,1703305101.0
205,pangani,-5.4333,38.9667,24.9,86.0,53.0,2.23,TZ,1703305102.0
206,balqash,46.8481,74.995,-5.67,79.0,0.0,5.0,KZ,1703305103.0
207,taltal,-25.4,-70.4833,18.31,80.0,0.0,0.97,CL,1703305103.0
208,uribia,11.7139,-72.266,26.45,79.0,21.0,6.19,CO,1703305104.0
209,olonkinbyen,70.9221,-8.7187,-2.01,64.0,100.0,11.92,SJ,1703305105.0
210,utrik,11.2278,169.8474,26.96,82.0,43.0,10.56,MH,1703305106.0
211,bodo,67.28,14.405,-3.98,66.0,0.0,11.32,NO,1703305106.0
212,ponta delgada,37.7333,-25.6667,13.4,82.0,20.0,2.57,PT,1703305107.0
213,kwakoa,-3.7667,37.7167,22.05,88.0,83.0,0.93,TZ,1703305108.0
214,nikolayevsk-on-amure,53.1406,140.73,-21.81,76.0,18.0,2.45,RU,1703305109.0
215,klyuchi,52.2667,79.1667,-8.05,85.0,100.0,2.97,RU,1703305110.0
216,zhezqazghan,47.7833,67.7667,-13.68,85.0,20.0,3.0,KZ,1703305110.0
217,tanrake village,,,,,,,,
218,puerto colombia,10.9878,-74.9547,27.05,82.0,14.0,10.36,CO,1703305112.0
219,jiwani,25.05,61.7417,22.1,58.0,3.0,2.0,PK,1703305113.0
220,remire-montjoly,4.9167,-52.2667,25.02,100.0,75.0,1.54,GF,1703305114.0
221,kodiak,57.79,-152.4072,2.73,93.0,100.0,16.46,US,1703305108.0
222,nyurba,63.2842,118.3319,-17.12,96.0,99.0,3.02,RU,1703305115.0
223,sokoni,-6.4333,39.55,27.42,81.0,24.0,2.97,TZ,1703305116.0
224,wenchang,30.904,118.4887,2.05,34.0,100.0,1.18,CN,1703305117.0
225,shimoda,34.6667,138.95,10.2,51.0,3.0,8.09,JP,1703305117.0
226,petropavlovsk-kamchatsky,53.0452,158.6483,-12.67,85.0,0.0,4.92,RU,1703305118.0
227,palo santo,-25.5633,-59.3378,24.76,88.0,7.0,1.74,AR,1703305119.0
228,dudinka,69.4058,86.1778,-14.62,97.0,100.0,2.68,RU,1703305120.0
229,berezovyy,51.6667,135.7,-20.52,68.0,2.0,1.4,RU,1703305121.0
230,lautoka,-17.6167,177.4667,29.92,62.0,20.0,7.72,FJ,1703305122.0
231,afaahiti,-17.75,-149.2833,25.93,87.0,100.0,3.01,PF,1703305122.0
232,luau,-10.7073,22.2247,18.73,97.0,100.0,0.82,AO,1703305123.0
233,safford,32.834,-109.7076,8.95,97.0,100.0,4.63,US,1703305124.0
234,enewetak,11.3474,162.3373,27.45,80.0,39.0,9.48,MH,1703305125.0
235,labrador city,52.9463,-66.9114,-16.05,72.0,100.0,3.09,CA,1703305125.0
236,buckie,57.6757,-2.9624,1.14,99.0,100.0,1.74,GB,1703305126.0
237,polyarnyy,69.1989,33.4478,-14.93,100.0,98.0,2.58,RU,1703305127.0
238,hun,29.1268,15.9477,9.33,66.0,0.0,3.78,LY,1703305127.0
239,cafayate,-26.073,-65.9761,20.69,77.0,43.0,1.66,AR,1703305128.0
240,saldanha,-33.0117,17.9442,17.61,89.0,8.0,5.74,ZA,1703305129.0
241,georgetown,5.4112,100.3354,31.08,66.0,40.0,5.14,MY,1703305127.0
242,millington,35.3415,-89.8973,14.07,75.0,75.0,2.57,US,1703305086.0
243,vilyuchinsk,52.9306,158.4028,-11.85,86.0,60.0,2.17,RU,1703305131.0
244,yenotayevka,47.2456,47.0281,1.19,91.0,74.0,1.19,RU,1703305131.0
245,bahia de caraquez,-0.6,-80.4167,25.1,85.0,90.0,3.04,EC,1703304976.0
246,ust-nera,64.5667,143.2,-39.44,98.0,93.0,1.91,RU,1703305133.0
247,konarka,19.9,86.1167,22.22,52.0,61.0,3.1,IN,1703305133.0
248,mariehamn,60.0973,19.9348,0.92,93.0,100.0,2.06,AX,1703305134.0
249,vila franca do campo,37.7167,-25.4333,13.23,82.0,0.0,2.66,PT,1703305135.0
250,pahrump,36.2083,-115.9839,9.62,92.0,96.0,0.45,US,1703305008.0
251,betio village,1.358,172.9211,29.02,79.0,53.0,5.57,KI,1703305136.0
252,chhuikhadan,21.5333,80.9833,21.48,31.0,74.0,2.17,IN,1703305136.0
253,miles city,46.4083,-105.8406,3.54,70.0,0.0,3.6,US,1703305137.0
254,mezhdurechenskiy,59.6,65.9333,-0.87,92.0,100.0,3.1,RU,1703305138.0
255,akobo,7.4344,3.9497,23.75,78.0,15.0,1.54,NG,1703305138.0
256,tomatlan,19.9333,-105.25,22.28,95.0,86.0,0.69,MX,1703305139.0
257,magadan,59.5667,150.8,-25.82,78.0,98.0,3.75,RU,1703305140.0
258,gwoza,11.1036,13.713,17.99,49.0,100.0,1.83,NG,1703305140.0
259,kilindoni,-7.9139,39.6668,27.57,80.0,75.0,2.67,TZ,1703305141.0
260,sandnessjoen,66.0217,12.6316,-9.71,73.0,100.0,7.9,NO,1703305142.0
261,sinjai,-5.1241,120.253,31.87,55.0,100.0,3.16,ID,1703305142.0
262,hilo,19.7297,-155.09,21.85,98.0,100.0,2.06,US,1703305027.0
263,chicxulub puerto,,,,,,,,
264,camana,-16.6228,-72.7111,21.33,86.0,100.0,3.29,PE,1703305145.0
265,paramonga,-10.6667,-77.8333,21.11,84.0,85.0,3.22,PE,1703305146.0
266,berdigestyakh,62.0989,126.6992,-33.43,100.0,100.0,0.8,RU,1703305146.0
267,mora,11.0461,14.1401,18.55,46.0,100.0,2.4,CM,1703304963.0
268,nagqu,31.5,92.0,-14.99,48.0,2.0,1.85,CN,1703305148.0
269,lucapa,-8.4192,20.7447,18.78,99.0,100.0,1.13,AO,1703305149.0
270,yeppoon,-23.1333,150.7333,31.88,72.0,59.0,4.64,AU,1703305149.0
271,mariakani,-3.8633,39.4736,24.05,89.0,88.0,1.14,KE,1703305150.0
272,tarma,-11.4197,-75.6908,12.49,88.0,94.0,0.68,PE,1703305151.0
273,moree,-29.4667,149.85,30.38,37.0,35.0,3.74,AU,1703305151.0
274,aasiaat,68.7098,-52.8699,-25.31,96.0,94.0,4.77,GL,1703305152.0
275,tual,-5.6667,132.75,28.77,78.0,100.0,6.51,ID,1703305153.0
276,barra de santo antonio,-9.4047,-35.5072,23.6,75.0,100.0,4.32,BR,1703305154.0
277,broken hill,-31.95,141.4333,31.78,14.0,75.0,5.72,AU,1703305154.0
278,san rafael del sur,11.8485,-86.4384,25.54,67.0,32.0,4.96,NI,1703305155.0
279,costa calma,,,,,,,,
280,villa gesell,-37.2639,-56.973,17.25,87.0,49.0,5.53,AR,1703305157.0
281,bridgewater,44.3835,-64.5155,-6.18,86.0,0.0,2.06,CA,1703305158.0
282,cidreira,-30.1811,-50.2056,22.66,95.0,100.0,0.97,BR,1703305159.0
283,attapeu,14.8,106.8333,27.15,47.0,98.0,4.46,LA,1703305159.0
284,talara,-4.5772,-81.2719,20.75,88.0,81.0,5.75,PE,1703305160.0
285,kalmunai,7.4167,81.8167,27.42,77.0,83.0,4.2,LK,1703305161.0
286,vilyuysk,63.7553,121.6247,-20.0,99.0,98.0,1.34,RU,1703305162.0
287,pingliang,35.5392,106.6861,-0.44,44.0,100.0,4.12,CN,1703305014.0
288,prince george,53.9166,-122.753,0.14,71.0,0.0,5.66,CA,1703305164.0
289,forster,-32.1667,152.5167,24.1,69.0,62.0,5.0,AU,1703305165.0
290,tutong,4.8,114.65,31.05,68.0,93.0,1.64,BN,1703305165.0
291,tralee,52.2704,-9.7026,10.21,80.0,99.0,7.67,IE,1703305166.0
292,alta,69.9689,23.2717,-15.41,72.0,79.0,7.72,NO,1703305167.0
293,owando,-0.4819,15.8999,22.85,92.0,73.0,1.04,CG,1703305168.0
294,usogorsk,63.4106,48.6872,-4.07,96.0,100.0,3.5,RU,1703305168.0
295,las toscas,-28.3529,-59.258,23.58,88.0,17.0,2.34,AR,1703305169.0
296,carnarvon,-24.8667,113.6333,25.25,64.0,26.0,5.59,AU,1703305170.0
297,al hufuf,25.3646,49.5653,13.19,47.0,0.0,2.06,SA,1703305171.0
298,kununurra,-15.7667,128.7333,39.99,39.0,84.0,2.06,AU,1703305047.0
299,holualoa,19.6228,-155.9522,20.99,97.0,84.0,2.14,US,1703305172.0
300,iskateley,67.6803,53.1512,-20.54,100.0,86.0,3.24,RU,1703305173.0
301,cuatro cienegas de carranza,26.9833,-102.0833,16.57,78.0,100.0,2.2,MX,1703305173.0
302,brisas de zicatela,15.8369,-97.0419,25.29,65.0,0.0,0.0,MX,1703305174.0
303,usinsk,65.9939,57.5281,-19.78,100.0,99.0,0.44,RU,1703305175.0
304,atafu village,-8.5421,-172.5159,27.62,82.0,100.0,6.74,TK,1703305176.0
305,ivanteyevka,55.9711,37.9208,1.3,99.0,100.0,3.58,RU,1703305176.0
306,saint-pierre,-21.3393,55.4781,29.82,58.0,20.0,1.03,RE,1703305177.0
307,yelizovo,53.1873,158.3805,-11.92,51.0,0.0,3.13,RU,1703305178.0
308,al ghayzah,16.2079,52.176,22.1,78.0,19.0,1.5,YE,1703305179.0
309,eunapolis,,,,,,,,
310,kidal,18.4411,1.4078,14.61,26.0,12.0,5.26,ML,1703305180.0
311,port isabel,26.0734,-97.2086,20.03,94.0,0.0,2.06,US,1703304901.0
312,yuzhno-kurilsk,44.0306,145.8556,-4.24,67.0,100.0,8.89,RU,1703305181.0
313,nar'yan-mar,67.6713,53.087,-20.38,100.0,84.0,3.24,RU,1703305182.0
314,coxim,-18.5067,-54.76,25.38,74.0,85.0,1.6,BR,1703305183.0
315,roxboro,36.3937,-78.9828,5.04,81.0,0.0,0.0,US,1703305184.0
316,bandipura,34.4167,74.65,8.86,50.0,100.0,0.22,IN,1703305184.0
317,hadibu,12.65,54.0333,24.59,72.0,20.0,4.18,YE,1703305185.0
318,la malbaie,47.6575,-70.1559,-5.75,57.0,87.0,2.13,CA,1703305186.0
319,gali,42.6265,41.7381,10.53,69.0,100.0,1.66,GE,1703305186.0
320,novolukoml',,,,,,,,
321,tommot,58.9564,126.2925,-17.52,94.0,100.0,1.43,RU,1703305188.0
322,serowe,-22.3833,26.7167,18.7,65.0,67.0,2.56,BW,1703305188.0
323,newman,37.3138,-121.0208,11.68,91.0,0.0,0.64,US,1703305189.0
324,antofagasta,-23.65,-70.4,19.6,83.0,49.0,1.81,CL,1703305104.0
325,tabas,33.5959,56.9244,9.91,40.0,0.0,1.19,IR,1703305190.0
326,bubaque,11.2833,-15.8333,25.01,57.0,60.0,4.05,GW,1703305191.0
327,mili,6.0815,171.735,27.97,80.0,100.0,8.13,MH,1703305191.0
328,shache,38.4167,77.2406,-1.91,34.0,94.0,1.04,CN,1703305192.0
329,le port,-20.9373,55.2919,30.0,79.0,99.0,1.38,RE,1703305193.0
330,santa terezinha,-29.9002,-50.0904,22.49,95.0,100.0,1.74,BR,1703305193.0
331,belmonte,-15.8631,-38.8828,25.01,87.0,71.0,3.3,BR,1703305194.0
332,armacao de buzios,-22.7469,-41.8817,26.03,93.0,100.0,1.66,BR,1703305195.0
333,midvagur,62.0511,-7.1939,-1.54,69.0,75.0,0.51,FO,1703305195.0
334,hibbing,47.4272,-92.9377,1.64,100.0,100.0,0.0,US,1703305196.0
335,wenzhou,27.9994,120.6668,8.54,38.0,63.0,0.85,CN,1703305197.0
336,maceio,-9.6658,-35.7353,23.69,100.0,20.0,0.0,BR,1703305197.0
337,callao,-12.0667,-77.15,22.07,78.0,20.0,4.12,PE,1703305187.0
338,pampa,35.5362,-100.9599,10.53,81.0,40.0,4.12,US,1703305198.0
339,broome,42.2506,-75.833,1.5,80.0,100.0,3.09,US,1703305199.0
340,sena madureira,-9.0656,-68.6569,23.72,96.0,99.0,0.77,BR,1703305200.0
341,dolgorukovo,52.3195,38.3453,1.43,100.0,100.0,4.93,RU,1703305201.0
342,cable beach,,,,,,,,
343,bobo-dioulasso,11.1771,-4.2979,19.16,20.0,7.0,2.17,BF,1703305046.0
344,newquay,50.4132,-5.0819,10.42,100.0,75.0,9.26,GB,1703305203.0
345,monopoli,40.9559,17.2896,12.86,68.0,82.0,3.62,IT,1703305206.0
346,atasu,48.6814,71.6433,-5.15,84.0,5.0,3.1,KZ,1703305207.0
347,nadym,65.5333,72.5167,-4.43,97.0,100.0,2.25,RU,1703305208.0
348,touros,-5.1989,-35.4608,26.64,71.0,75.0,5.34,BR,1703305183.0
349,mudanjiang,44.5833,129.6,-14.97,78.0,9.0,2.43,CN,1703305209.0
350,calingasta,-31.3308,-69.4078,23.29,36.0,24.0,0.62,AR,1703305210.0
351,abraham's bay,,,,,,,,
352,luderitz,-26.6481,15.1594,15.79,81.0,0.0,7.15,,1703305212.0
353,mahalapye,-23.1041,26.8142,20.44,53.0,16.0,3.4,BW,1703305213.0
354,zyryanovsk,49.7386,84.2719,-16.47,96.0,27.0,0.47,KZ,1703305202.0
355,la sarre,48.8002,-79.1996,-5.88,95.0,100.0,2.98,CA,1703305214.0
356,qarayeri,40.7886,46.3066,5.49,70.0,40.0,2.06,AZ,1703305215.0
357,ijuw,,,,,,,,
358,kudahuvadhoo,2.6708,72.8944,27.32,75.0,100.0,1.31,MV,1703305217.0
359,dakhla,23.6848,-15.958,16.49,72.0,0.0,3.72,EH,1703305218.0
360,laguna,38.421,-121.4238,13.51,87.0,0.0,0.0,US,1703305219.0
361,yenangyaung,20.4667,94.8833,25.94,56.0,8.0,2.92,MM,1703305219.0
362,margate,51.3813,1.3862,9.37,78.0,99.0,4.02,GB,1703305181.0
363,saratamata,,,,,,,,
364,rupert,42.6191,-113.6772,5.97,75.0,100.0,4.12,US,1703305222.0
365,puerto escondido,15.85,-97.0667,25.46,65.0,0.0,0.0,MX,1703305223.0
366,korla,41.7597,86.1469,-4.82,62.0,2.0,1.66,CN,1703305224.0
367,nahiyat ash shinafiyah,31.5874,44.6602,13.51,80.0,0.0,2.14,IQ,1703305224.0
368,crane,31.3974,-102.3501,13.37,88.0,5.0,5.76,US,1703305225.0
369,jackson,42.4165,-122.8345,3.22,91.0,0.0,1.54,US,1703304937.0
370,mogocha,53.7333,119.7667,-18.26,79.0,55.0,0.68,RU,1703305227.0
371,aleksandrovsk-sakhalinskiy,50.8975,142.1561,-20.24,87.0,100.0,3.83,RU,1703305228.0
372,morrope,-6.5417,-80.0111,22.06,78.0,100.0,5.67,PE,1703305229.0
373,severnoye,56.3491,78.3619,-7.23,95.0,100.0,3.13,RU,1703305230.0
374,tan-tan,28.438,-11.1032,14.44,24.0,0.0,4.74,MA,1703305230.0
375,portland,45.5234,-122.6762,6.1,94.0,75.0,0.45,US,1703305024.0
376,yondo,7.0062,-73.9097,25.23,89.0,100.0,0.34,CO,1703305232.0
377,amarillo,35.222,-101.8313,9.57,76.0,40.0,5.66,US,1703305144.0
378,narrabri,-30.3167,149.7833,30.24,35.0,55.0,1.87,AU,1703305233.0
379,bonito,-21.1211,-56.4819,25.67,70.0,5.0,2.0,BR,1703305234.0
380,klaksvik,62.2266,-6.589,-1.49,55.0,100.0,4.72,FO,1703305235.0
381,hafnarfjordur,64.0671,-21.9377,-4.07,63.0,20.0,5.66,IS,1703305236.0
382,pocatello,42.8713,-112.4455,4.95,75.0,100.0,3.09,US,1703305099.0
383,porto novo,6.4965,2.6036,25.9,73.0,27.0,1.54,BJ,1703305237.0
384,taoudenni,22.6783,-3.9836,14.5,23.0,89.0,5.01,ML,1703305238.0
385,alo,7.4178,6.7371,24.95,37.0,62.0,0.36,NG,1703305239.0
386,baturaja,-4.1333,104.1667,31.92,58.0,97.0,1.65,ID,1703305240.0
387,fort mcmurray,56.7268,-111.381,-2.27,86.0,100.0,2.06,CA,1703305223.0
388,morris,40.8334,-74.5329,0.44,73.0,100.0,0.0,US,1703305097.0
389,lazaro cardenas,17.9583,-102.2,25.02,82.0,74.0,3.02,MX,1703305242.0
390,atar,20.5169,-13.0499,13.51,30.0,81.0,3.2,MR,1703305243.0
391,shenjiamen,29.9576,122.298,5.08,71.0,100.0,6.0,CN,1703305244.0
392,jimma,7.6667,36.8333,15.11,75.0,98.0,0.41,ET,1703305244.0
393,esquel,-42.9,-71.3167,8.07,84.0,5.0,2.79,AR,1703305245.0
394,tarawa,1.419,172.984,29.05,84.0,75.0,4.63,KI,1703305246.0
395,cam pha mines,21.0167,107.3,15.15,35.0,17.0,1.8,VN,1703305246.0
396,santa marinella,42.0345,11.8536,7.05,71.0,49.0,0.88,IT,1703305247.0
397,yatou,37.15,122.3833,-2.79,66.0,5.0,2.89,CN,1703305248.0
398,ar ruways,24.1103,52.7306,18.79,63.0,5.0,3.3,AE,1703305208.0
399,burela de cabo,43.65,-7.4,10.58,81.0,100.0,1.45,ES,1703305249.0
400,kamiiso,41.8167,140.65,-5.79,86.0,75.0,7.2,JP,1703305250.0
401,siavonga,-16.5382,28.7088,24.7,80.0,100.0,0.84,ZM,1703305250.0
402,kudat,6.8837,116.8477,30.96,79.0,40.0,3.09,MY,1703305251.0
403,ingeniero guillermo n. juarez,-23.9,-61.85,25.68,83.0,55.0,2.98,AR,1703305252.0
404,puerto leguizamo,-0.1934,-74.7819,23.09,98.0,98.0,0.79,CO,1703305252.0
405,hotan,37.0997,79.9269,-1.94,34.0,80.0,0.42,CN,1703305253.0
406,hastinapur,29.1667,78.0167,17.25,40.0,80.0,2.07,IN,1703305253.0
407,ust'-ilimsk,58.0006,102.6619,-6.98,96.0,100.0,2.68,RU,1703305254.0
408,lodwar,3.1191,35.5973,27.73,48.0,67.0,2.35,KE,1703305237.0
409,zunheboto,25.9667,94.5167,17.1,47.0,96.0,0.77,IN,1703305255.0
410,turpan,42.9333,89.1667,-3.06,37.0,0.0,0.84,CN,1703305256.0
411,baoding,38.8511,115.4903,-5.39,64.0,3.0,0.37,CN,1703305257.0
412,howard springs,-12.497,131.047,36.1,69.0,41.0,4.98,AU,1703305257.0
413,horta,38.5333,-28.6333,16.68,75.0,16.0,2.24,PT,1703305258.0
414,impfondo,1.6381,18.0667,24.35,82.0,100.0,0.59,CG,1703305259.0
415,hammerfest,70.6634,23.6821,-8.75,73.0,70.0,0.51,NO,1703305259.0
416,manuel ojinaga,,,,,,,,
417,igrim,63.1906,64.4162,-6.88,97.0,94.0,2.22,RU,1703305260.0
418,colonia,50.9333,6.95,9.36,84.0,75.0,9.77,DE,1703305261.0
419,ancud,-41.8697,-73.8203,9.69,90.0,55.0,2.3,CL,1703305262.0
420,khandyga,62.6667,135.6,-32.74,95.0,100.0,1.31,RU,1703305263.0
421,az zubayr,30.3945,47.7011,18.23,69.0,100.0,8.61,IQ,1703305263.0
422,kaiapoi,-43.3783,172.6401,20.19,87.0,100.0,4.12,NZ,1703305264.0
423,ahau,,,,,,,,
424,neijiang,29.5835,105.0622,10.16,58.0,6.0,1.57,CN,1703305266.0
425,khanty-mansiysk,61.0042,69.0019,0.06,93.0,75.0,5.0,RU,1703305033.0
426,tianshui,34.5439,105.6897,0.3,32.0,100.0,3.63,CN,1703305267.0
427,miyazaki,31.9111,131.4239,8.97,43.0,75.0,3.09,JP,1703305164.0
428,east london,-33.0153,27.9116,18.52,94.0,0.0,2.06,ZA,1703305269.0
429,nuuk,64.1835,-51.7216,-11.66,61.0,4.0,9.26,GL,1703305080.0
430,kone,-21.0595,164.8658,31.1,59.0,85.0,2.17,NC,1703305270.0
431,taybad,34.74,60.7756,9.99,40.0,1.0,7.16,IR,1703305133.0
432,guatrache,-37.6678,-63.5302,18.12,86.0,8.0,5.83,AR,1703305272.0
433,geraldton,-28.7667,114.6,27.23,57.0,17.0,5.66,AU,1703305272.0
434,'ohonua,,,,,,,,
435,kabalo,-6.05,26.9167,20.84,97.0,99.0,1.51,CD,1703305274.0
436,gadzhiyevo,69.2551,33.3362,-16.12,100.0,93.0,2.75,RU,1703305275.0
437,praia,14.9215,-23.5087,22.3,56.0,75.0,6.17,CV,1703305275.0
438,pont rouge,48.8833,-72.0825,-8.84,67.0,100.0,2.02,CA,1703305276.0
439,mahibadhoo,3.7833,72.9667,28.35,74.0,100.0,4.92,MV,1703305277.0
440,alpena,45.0617,-83.4327,2.28,99.0,100.0,2.57,US,1703305278.0
441,plastun,44.7561,136.2939,-13.25,46.0,0.0,5.03,RU,1703305279.0
442,labytnangi,66.6572,66.4183,-16.37,96.0,75.0,1.9,RU,1703305280.0
443,acapulco de juarez,16.8634,-99.8901,25.9,83.0,40.0,1.54,MX,1703305281.0
444,dossor,47.5272,52.9811,1.57,74.0,100.0,5.23,KZ,1703305282.0
445,minas de marcona,-15.2119,-75.1103,16.44,91.0,99.0,4.34,PE,1703305283.0
446,hoeyang,38.7103,127.5983,-6.82,59.0,49.0,3.21,KP,1703305284.0
447,queenstown,-31.8976,26.8753,21.14,60.0,0.0,2.0,ZA,1703305284.0
448,aras-asan,8.8908,126.3033,27.93,77.0,26.0,3.57,PH,1703305285.0
449,lindi,-10.0,39.7167,25.52,90.0,97.0,1.05,TZ,1703305286.0
450,ceeldheer,3.8488,47.1806,26.19,83.0,74.0,6.44,SO,1703305287.0
451,tateyama,34.9833,139.8667,9.0,48.0,26.0,3.54,JP,1703305288.0
452,oranjemund,-28.55,16.4333,17.4,85.0,86.0,5.98,,1703305289.0
453,mejit,10.2753,170.8646,26.97,80.0,98.0,10.41,MH,1703305289.0
454,bamboo flat,11.7,92.7167,28.74,63.0,69.0,7.21,IN,1703305290.0
455,tanki leendert,,,,,,,,
456,sillamae,59.3997,27.7547,0.64,97.0,100.0,4.82,EE,1703305292.0
457,vadso,70.0744,29.7487,-12.91,85.0,100.0,6.17,NO,1703305292.0
458,kimbe,-5.5502,150.1429,28.27,83.0,99.0,2.49,PG,1703305293.0
459,sonsorol village,,,,,,,,
460,ardestan,33.3761,52.3694,8.79,41.0,18.0,2.19,IR,1703305294.0
461,demopolis,32.5176,-87.8364,6.97,93.0,40.0,0.0,US,1703305295.0
462,codrington,-38.2667,141.9667,20.24,51.0,4.0,6.62,AU,1703305296.0
463,xinzhi,36.4989,111.7047,-3.76,57.0,6.0,4.96,CN,1703305297.0
464,samana,19.2056,-69.3369,23.43,75.0,66.0,3.83,DO,1703305298.0
465,el calafate,-50.3408,-72.2768,7.6,67.0,51.0,3.72,AR,1703305298.0
466,antsiranana,-12.2787,49.2917,29.42,65.0,20.0,2.06,MG,1703305299.0
467,loango,-4.6719,11.8312,24.81,100.0,40.0,0.51,CG,1703305300.0
468,chai badan,15.2,101.1333,28.39,45.0,97.0,9.41,TH,1703305301.0
469,tofol,5.3248,163.0078,27.98,77.0,47.0,7.42,FM,1703305301.0
470,vasteras,59.6162,16.5528,-3.05,86.0,100.0,7.2,SE,1703305302.0
471,periyanegamam,10.7333,77.1,22.28,78.0,100.0,4.02,IN,1703305303.0
472,kingston,17.997,-76.7936,25.53,89.0,20.0,3.6,JM,1703305205.0
473,parque lefevre,,,,,,,,
474,tazacorte,28.629,-17.9293,16.75,75.0,0.0,4.63,ES,1703305305.0
475,sishilichengzi,,,,,,,,
476,new norfolk,-42.7826,147.0587,20.4,39.0,56.0,2.12,AU,1703305306.0
477,basco,20.4487,121.9702,21.46,79.0,100.0,12.98,PH,1703305307.0
478,arteche,12.2645,125.4048,27.83,79.0,99.0,5.03,PH,1703305308.0
479,greymouth,-42.4667,171.2,16.03,94.0,100.0,3.48,NZ,1703305308.0
480,duragan,41.4158,35.0544,6.78,80.0,100.0,2.85,TR,1703305309.0
481,lerwick,60.1545,-1.1494,2.0,57.0,100.0,4.21,GB,1703305310.0
482,athens,37.9795,23.7162,12.87,80.0,20.0,1.79,GR,1703305305.0
483,senanga,-16.1167,23.2667,19.96,95.0,100.0,0.23,ZM,1703305311.0
484,coin,36.6595,-4.7564,9.67,53.0,0.0,1.21,ES,1703305311.0
485,tamanrasset,22.785,5.5228,9.62,22.0,53.0,2.01,DZ,1703305312.0
486,afif,23.9065,42.9172,16.52,90.0,57.0,4.34,SA,1703305313.0
487,arkhara,49.4212,130.0842,-26.24,92.0,21.0,0.45,RU,1703305313.0
488,veraval,20.9,70.3667,25.15,44.0,12.0,2.68,IN,1703305314.0
489,cargados carajos,,,,,,,,
490,rampur,28.8167,79.0333,14.28,42.0,45.0,2.28,IN,1703305315.0
491,sur,22.5667,59.5289,21.9,61.0,0.0,2.27,OM,1703305316.0
492,buka,40.8108,69.1986,6.42,28.0,0.0,0.52,UZ,1703305316.0
493,daru,-9.0763,143.2092,32.79,58.0,98.0,2.04,PG,1703305317.0
494,vila velha,-20.3297,-40.2925,23.97,94.0,0.0,2.57,BR,1703305318.0
495,qaisumah,28.3112,46.1273,14.98,88.0,75.0,2.06,SA,1703305318.0
496,ocean shores,46.9737,-124.1563,8.3,86.0,75.0,1.79,US,1703305319.0
497,fort st. john,56.2499,-120.8529,-1.06,80.0,75.0,1.54,CA,1703305320.0
498,ilebo,-4.3167,20.5833,21.48,99.0,100.0,1.11,CD,1703305320.0
499,muzayri',,,,,,,,
500,nangomba,-10.9,38.5,24.12,88.0,92.0,2.1,TZ,1703305322.0
501,pacasmayo,-7.4006,-79.5714,21.15,82.0,96.0,4.41,PE,1703305322.0
502,karratha,-20.7377,116.8463,33.09,44.0,0.0,9.19,AU,1703305323.0
503,undurkhaan,47.3194,110.6556,-20.74,79.0,6.0,2.49,MN,1703305324.0
504,lodja,-3.4833,23.4333,21.22,99.0,96.0,1.23,CD,1703305325.0
505,puerto madero,14.7208,-92.4215,20.11,100.0,0.0,0.0,MX,1703305122.0
506,lagoa,39.05,-27.9833,15.4,71.0,8.0,4.33,PT,1703305326.0
507,naze,28.3667,129.4833,13.51,63.0,100.0,4.96,JP,1703305327.0
508,tadine,-21.55,167.8833,27.13,80.0,69.0,5.42,NC,1703305328.0
509,kishiwada,34.4667,135.3667,8.71,65.0,75.0,8.75,JP,1703305180.0
510,los andes,-32.8337,-70.5983,19.45,49.0,100.0,0.42,CL,1703305329.0
511,san luis de la loma,17.2706,-100.8939,24.54,87.0,85.0,1.57,MX,1703305330.0
512,torghay,49.6339,63.4981,-5.91,91.0,6.0,3.72,KZ,1703305330.0
513,callaway,30.153,-85.5699,12.96,74.0,0.0,2.06,US,1703305331.0
514,port saint john's,-31.6229,29.5448,23.98,78.0,13.0,2.05,ZA,1703305332.0
515,warrnambool,-38.3833,142.4833,18.59,61.0,10.0,7.64,AU,1703305333.0
516,darnah,32.767,22.6367,17.61,81.0,5.0,9.38,LY,1703305334.0
517,vico del gargano,41.8983,15.9576,7.7,61.0,100.0,2.68,IT,1703305334.0
518,lampazos de naranjo,27.0167,-100.5167,20.31,74.0,100.0,3.35,MX,1703305335.0
519,fonadhoo,,,,,,,,
520,atherton,53.5237,-2.4935,11.31,82.0,100.0,6.26,GB,1703305337.0
521,governor's harbour,,,,,,,,
522,la almunia de dona godina,41.4767,-1.3745,9.24,100.0,1.0,3.55,ES,1703305339.0
523,yanykurgan,43.915,67.2481,1.31,50.0,3.0,6.0,KZ,1703305339.0
524,lisala,2.15,21.5167,23.15,93.0,97.0,0.42,CD,1703305341.0
525,wuxue,29.8506,115.5525,4.51,28.0,87.0,0.47,CN,1703305233.0
526,neryungri,56.6709,124.6491,-18.39,95.0,100.0,0.92,RU,1703305342.0
527,gwanda,-20.9333,29.0,20.18,81.0,13.0,1.99,ZW,1703305343.0
528,linares,-35.85,-71.6,18.73,40.0,100.0,3.09,CL,1703305344.0
529,al muwayh,22.4333,41.7583,16.98,90.0,1.0,2.43,SA,1703305345.0
530,kiruna,67.8557,20.2251,-20.71,100.0,100.0,2.44,SE,1703305346.0
531,saynshand,44.8824,110.1163,-18.55,71.0,4.0,3.65,MN,1703305347.0
532,rongelap,11.1635,166.8941,27.25,80.0,28.0,8.42,MH,1703305348.0
533,dryden,49.7833,-92.7503,1.16,93.0,100.0,3.6,CA,1703305348.0
534,el haouaria,37.05,11.0144,15.98,74.0,0.0,18.69,TN,1703305349.0
535,grandview,38.8858,-94.533,12.17,95.0,100.0,3.09,US,1703305350.0
536,deqen,29.9618,90.7188,1.3,19.0,54.0,1.16,CN,1703305351.0
537,sao tome,0.3365,6.7273,26.02,89.0,20.0,1.54,ST,1703305351.0
538,san fernando de monte cristi,19.8667,-71.65,23.96,74.0,95.0,6.53,DO,1703305352.0
539,san juan de miraflores,-12.1629,-76.9635,21.21,82.0,93.0,2.14,PE,1703305353.0
540,la foa,-21.7108,165.8276,29.91,64.0,83.0,2.97,NC,1703305354.0
541,kisangani,0.5167,25.2,21.64,98.0,87.0,1.1,CD,1703305354.0
542,bechar,31.6167,-2.2167,6.4,37.0,0.0,1.17,DZ,1703305355.0
543,corner brook,48.9667,-57.9484,-2.91,93.0,100.0,4.52,CA,1703305356.0
544,salalah,17.0151,54.0924,22.05,73.0,20.0,1.54,OM,1703305357.0
545,ji'an,27.1172,114.9793,5.29,37.0,7.0,3.5,CN,1703305357.0
546,bereznik,62.8551,42.7072,-0.25,89.0,100.0,4.77,RU,1703305358.0
547,ribeira brava,32.65,-17.0667,17.35,65.0,16.0,3.01,PT,1703305359.0
548,greenville,35.6127,-77.3663,1.01,100.0,0.0,0.0,US,1703305140.0
549,ouesso,1.6136,16.0517,22.98,79.0,82.0,1.22,CG,1703305360.0
550,kallar kahar,32.7833,72.7,16.18,26.0,12.0,1.5,PK,1703305361.0
551,santa maria,-29.6842,-53.8069,21.46,98.0,100.0,2.0,BR,1703305251.0
552,makhambet,47.6667,51.5833,2.62,68.0,96.0,3.72,KZ,1703305362.0
553,santiago,-33.4569,-70.6483,22.97,45.0,0.0,3.6,CL,1703305363.0
554,sittwe,20.15,92.9,24.74,65.0,7.0,1.07,MM,1703305364.0
555,pine bluff,34.2284,-92.0032,12.96,89.0,100.0,0.0,US,1703305113.0
556,hami,42.8,93.45,-4.37,53.0,0.0,0.46,CN,1703305079.0
557,darwin,-12.4611,130.8418,36.14,68.0,20.0,7.72,AU,1703305366.0
558,boundiali,9.5217,-6.4869,19.47,23.0,0.0,1.78,CI,1703305366.0
559,lamu,-2.2717,40.902,25.12,85.0,98.0,1.87,KE,1703305367.0
560,waingapu,-9.6567,120.2641,31.84,63.0,7.0,4.18,ID,1703305368.0
561,robbah,33.2797,6.9098,12.01,46.0,0.0,4.03,DZ,1703305369.0
562,tshabong,-26.05,22.45,25.35,28.0,12.0,3.7,BW,1703305369.0
563,multan,30.1956,71.4753,10.94,87.0,6.0,0.0,PK,1703305370.0
564,rawson,-43.3002,-65.1023,17.94,58.0,10.0,2.18,AR,1703305370.0
565,ploneour-lanvern,47.9,-4.2833,10.18,100.0,100.0,4.63,FR,1703305371.0
566,ghat,24.9647,10.1728,8.65,48.0,0.0,1.61,LY,1703305372.0
567,ust'-barguzin,53.45,108.9833,-13.39,92.0,100.0,2.0,RU,1703305372.0
568,fort polk south,31.0511,-93.2158,14.01,94.0,0.0,0.0,US,1703305373.0
569,kovdor,67.5662,30.4758,-17.4,100.0,100.0,1.97,RU,1703305374.0
570,hakui,36.8833,136.7833,3.96,83.0,100.0,0.22,JP,1703305374.0
571,nizhneangarsk,55.7833,109.55,-12.22,92.0,100.0,0.45,RU,1703305375.0
572,kerikeri,-35.2268,173.9474,20.61,83.0,97.0,3.2,NZ,1703305376.0
573,ambato boeny,-16.4667,46.7167,26.02,75.0,96.0,1.01,MG,1703305376.0
574,el granada,37.5027,-122.4694,13.77,87.0,75.0,9.26,US,1703305377.0
575,constitucion,-35.3333,-72.4167,16.34,69.0,80.0,4.7,CL,1703305377.0
576,guaruja,-23.9931,-46.2564,23.83,26.0,49.0,0.55,BR,1703305378.0
577,kuqa,41.7278,82.9364,-3.75,49.0,0.0,0.87,CN,1703305379.0
578,pasuquin,18.3328,120.6177,29.97,51.0,75.0,4.63,PH,1703305379.0
579,kasongo-lunda,-6.4667,16.8167,21.4,99.0,100.0,0.76,CD,1703305380.0
580,xichang,27.8964,102.2634,10.31,64.0,64.0,1.33,CN,1703305381.0
581,mazagao,-0.115,-51.2894,27.03,95.0,61.0,1.51,BR,1703305381.0
582,takestan,36.0696,49.6959,3.07,71.0,9.0,3.15,IR,1703305382.0
583,port hedland,-20.3167,118.5667,33.03,58.0,3.0,10.29,AU,1703305383.0
584,morehead city,34.7229,-76.726,11.0,87.0,0.0,2.57,US,1703305347.0
